[
  {
    "name": "다솜창원노인복지센터",
    "address": "경상남도 창원시 의창구 동읍 자여로  89 (동읍)",
    "phone": "055-251-0553",
    "category": "노인맞춤돌봄",
    "lat": 35.2757537414518,
    "lng": 128.702533331499
  },
  {
    "name": "동진노인복지센터",
    "address": "경상남도 창원시 의창구 동읍 동읍로  517-14 (동읍)",
    "phone": "055-299-2233",
    "category": "노인맞춤돌봄",
    "lat": 35.3127334208082,
    "lng": 128.656815205842
  },
  {
    "name": "영호노인복지센터",
    "address": "경상남도 창원시 의창구 대산면 진산대로  430-26 (대산면)",
    "phone": "055-291-4664",
    "category": "노인맞춤돌봄",
    "lat": 35.3372699113721,
    "lng": 128.710292128773
  },
  {
    "name": "늘돌봄요양센터",
    "address": "경상남도 창원시 마산합포구 완월서1길  11 (완월동)",
    "phone": "055-261-2004",
    "category": "노인맞춤돌봄",
    "lat": 35.2001646190807,
    "lng": 128.556552791489
  },
  {
    "name": "어부바노인복지센터",
    "address": "경상남도 창원시 마산회원구 내서읍 상곡로  98-9 (내서읍)",
    "phone": "055-232-2397",
    "category": "노인맞춤돌봄",
    "lat": 35.2475229832043,
    "lng": 128.498564228388
  },
  {
    "name": "참조은노인복지센터",
    "address": "경상남도 창원시 마산회원구 3·15대로  576-3 3층 (회원동)",
    "phone": "055-245-3900",
    "category": "노인맞춤돌봄",
    "lat": 35.2254603637394,
    "lng": 128.573243766815
  },
  {
    "name": "새날노인돌봄의집",
    "address": "경상남도 창원시 진해구 충장로  325 202호 (경화동, 한빛프라자)",
    "phone": "055-547-4686",
    "category": "노인맞춤돌봄",
    "lat": 35.1538329271498,
    "lng": 128.687613559345
  },
  {
    "name": "인애노인복지센터",
    "address": "경상남도 양산시 삼려2길10",
    "phone": "055-362-1162",
    "category": "노인맞춤돌봄",
    "lat": 35.4197065749717,
    "lng": 129.177949229406
  }
]