[
  {
    "name": "진주소방서",
    "address": "경상남도 진주시 동진로 249",
    "phone": "055-760-9212",
    "lat": 35.180370199356,
    "lng": 128.11847357055
  },
  {
    "name": "통영소방서",
    "address": "경상남도 통영시 광도면 죽림4로 49",
    "phone": "055-640-9212",
    "lat": 34.883549411227,
    "lng": 128.418965651501
  },
  {
    "name": "사천소방서",
    "address": "경상남도 사천시 남일로 29",
    "phone": "055-830-9212"
  },
  {
    "name": "김해동부소방서",
    "address": "경상남도 김해시 김해대로 2507",
    "phone": "055-320-9212",
    "lat": 35.2285973748818,
    "lng": 128.90139721989
  },
  {
    "name": "김해서부소방서",
    "address": "경상남도 김해시 장유로 341",
    "phone": "055-344-9212",
    "lat": 35.1965616476144,
    "lng": 128.817280396296
  },
  {
    "name": "밀양소방서",
    "address": "경상남도 밀양시 밀양대로 1760",
    "phone": "055-350-9212",
    "lat": 35.4828106574279,
    "lng": 128.75340527354
  },
  {
    "name": "거제소방서",
    "address": "경상남도 거제시 진목로 1",
    "phone": "055-689-9212",
    "lat": 34.8961398353134,
    "lng": 128.686169060831
  },
  {
    "name": "양산소방서",
    "address": "경상남도 양산시 물금읍 황산로 719",
    "phone": "055-379-9212",
    "lat": 35.334037727195,
    "lng": 129.010028157045
  },
  {
    "name": "의령소방서",
    "address": "경상남도 의령군 의령읍 구룡로 1가 34",
    "phone": "055-570-9212"
  },
  {
    "name": "함안소방서",
    "address": "경상남도 함안군 가야읍 선왕길 59",
    "phone": "055-580-9212",
    "lat": 35.2862017245989,
    "lng": 128.399985659108
  },
  {
    "name": "창녕소방서",
    "address": "경상남도 창녕군 대지면 우포2로 1097",
    "phone": "055-259-9212",
    "lat": 35.5504486992367,
    "lng": 128.479127234115
  },
  {
    "name": "고성소방서",
    "address": "경상남도 고성군 대가면 무량로 251",
    "phone": "055-670-9212",
    "lat": 34.9998739981523,
    "lng": 128.286412865426
  },
  {
    "name": "남해소방서",
    "address": "경상남도 남해군 남해읍 스포츠로 81",
    "phone": "055-860-9212",
    "lat": 34.8295889565565,
    "lng": 127.892687672548
  },
  {
    "name": "하동소방서",
    "address": "경상남도 하동군 금성면 금성로 15",
    "phone": "055-880-9212",
    "lat": 34.9778646913259,
    "lng": 127.795620387964
  },
  {
    "name": "산청소방서",
    "address": "경상남도 산청군 산청읍 중앙로 76-7",
    "phone": "055-970-9212",
    "lat": 35.4152387159628,
    "lng": 127.883464079432
  },
  {
    "name": "함양소방서",
    "address": "경상남도 함양군 함양읍 인당 강변길 58",
    "phone": "055-960-9212",
    "lat": 35.5100363818351,
    "lng": 127.732298002116
  },
  {
    "name": "거창소방서",
    "address": "경상남도 거창군 거창읍 거함대로 3324",
    "phone": "055-940-9212",
    "lat": 35.6776118549455,
    "lng": 127.923453467851
  },
  {
    "name": "합천소방서",
    "address": "경상남도 합천군 합천읍 인덕로 2453",
    "phone": "055-930-9212",
    "lat": 35.5728082963192,
    "lng": 128.148537456579
  },
  {
    "name": "경상남도 소방본부",
    "address": "경상남도 창원시 의창구 중앙대로 300",
    "phone": "055-211-5318",
    "lat": 35.2378032514675,
    "lng": 128.691940442146
  }
]