[
  {
    "name": "경상남도자원봉사센터",
    "address": "경남 창원시 성산구 용지로 240",
    "phone": "055-281-1365",
    "category": "자원봉사",
    "lat": 35.2348558207752,
    "lng": 128.687119109688
  },
  {
    "name": "창원시자원봉사센터",
    "address": "경남 창원시 성산구 상남로58번길 21",
    "phone": "055-225-3850",
    "category": "자원봉사",
    "lat": 35.2182160985732,
    "lng": 128.681380828819
  },
  {
    "name": "진주시자원봉사센터",
    "address": "경남 진주시 동진로 155",
    "phone": "055-749-5424",
    "category": "자원봉사",
    "lat": 35.1802432613252,
    "lng": 128.108822830868
  },
  {
    "name": "통영시자원봉사센터",
    "address": "경남 통영시 통영해안로 515",
    "phone": "055-650-4290",
    "category": "자원봉사",
    "lat": 34.8543422776641,
    "lng": 128.433177937985
  },
  {
    "name": "사천시자원봉사센터",
    "address": "경남 사천시 동금5길 15",
    "phone": "055-831-5792",
    "category": "자원봉사",
    "lat": 34.9333498432233,
    "lng": 128.082058725311
  },
  {
    "name": "김해시자원봉사센터",
    "address": "경남 김해시 가야로 432",
    "phone": "055-330-7391",
    "category": "자원봉사",
    "lat": 35.2420123354471,
    "lng": 128.883092575357
  },
  {
    "name": "밀양시자원봉사센터",
    "address": "경남 밀양시 밀성로3길 9",
    "phone": "055-354-1365",
    "category": "자원봉사",
    "lat": 35.4997955622599,
    "lng": 128.749322422144
  },
  {
    "name": "거제시자원봉사센터",
    "address": "경남 거제시 고현로2길 42",
    "phone": "055-632-0400",
    "category": "자원봉사",
    "lat": 34.8824218865768,
    "lng": 128.622879642137
  },
  {
    "name": "양산시자원봉사센터",
    "address": "경남 양산시 옥곡2길 20",
    "phone": "055-385-8100",
    "category": "자원봉사",
    "lat": 35.3355424564328,
    "lng": 129.037102846237
  },
  {
    "name": "의령군자원봉사센터",
    "address": "경남 의령군 의령읍 의병로8길 44",
    "phone": "055-570-4976",
    "category": "자원봉사",
    "lat": 35.3154535101567,
    "lng": 128.255893112204
  },
  {
    "name": "남해군자원봉사센터",
    "address": "경남 남해군 남해읍 망운로32",
    "phone": "055-860-3883",
    "category": "자원봉사",
    "lat": 34.8385160368166,
    "lng": 127.890424384522
  },
  {
    "name": "거창군자원봉사센터",
    "address": "경남 거창군 아림로 66",
    "phone": "055-940-3904",
    "category": "자원봉사",
    "lat": 35.6890647450756,
    "lng": 127.909834029791
  }
]