[
  {
    "name": "창원시 사회복지과",
    "address": "경상남도 창원시 성산구 중앙대로 151",
    "phone": "055-225-3613",
    "category": "시군구청",
    "lat": 35.2283675994713,
    "lng": 128.681258482632
  },
  {
    "name": "진주시 복지정책과",
    "address": "경상남도 진주시 동진로 155",
    "phone": "055-749-8492",
    "category": "시군구청",
    "lat": 35.1802432613252,
    "lng": 128.108822830868
  },
  {
    "name": "통영시 노인장애인과",
    "address": "경상남도 통영시 통영해안로 515",
    "phone": "055-650-4213",
    "category": "시군구청",
    "lat": 34.8543422776641,
    "lng": 128.433177937985
  },
  {
    "name": "사천시 노인장애인과",
    "address": "경상남도 사천시 용현면 시청로 77",
    "phone": "055-831-2076",
    "category": "시군구청",
    "lat": 35.0035881294622,
    "lng": 128.064746550268
  },
  {
    "name": "김해시 노인장애인과",
    "address": "경상남도 김해시 김해대로 2401",
    "phone": "055-330-4685",
    "category": "시군구청",
    "lat": 35.2286111782636,
    "lng": 128.889394622761
  },
  {
    "name": "밀양시 사회복지과",
    "address": "경상남도 밀양시 밀양대로 2047",
    "phone": "055-359-5999",
    "category": "시군구청",
    "lat": 35.5034482908636,
    "lng": 128.747419157463
  },
  {
    "name": "거제시 노인장애인과",
    "address": "경상남도 거제시 계룡로 125",
    "phone": "055-639-3794",
    "category": "시군구청",
    "lat": 34.8805543084654,
    "lng": 128.62078918694
  },
  {
    "name": "양산시 사회복지과",
    "address": "경상남도 양산시 중앙로 39",
    "phone": "055-392-2522",
    "category": "시군구청",
    "lat": 35.3351250615612,
    "lng": 129.038117401224
  },
  {
    "name": "의령군 사회복지과",
    "address": "경상남도 의령군 의령읍 충익로 63",
    "phone": "055-570-2232",
    "category": "시군구청",
    "lat": 35.3223727308623,
    "lng": 128.261394895778
  },
  {
    "name": "함안군 주민복지과",
    "address": "경상남도 함안군 가야읍 말산로 1",
    "phone": "055-580-2363",
    "category": "시군구청",
    "lat": 35.2724904048531,
    "lng": 128.406538263943
  },
  {
    "name": "창녕군 성산복지과",
    "address": "경상남도 창녕군 창녕읍 군청길 1",
    "phone": "055-530-1405",
    "category": "시군구청",
    "lat": 35.5451632609156,
    "lng": 128.493023647817
  },
  {
    "name": "고성군 주민생활과",
    "address": "경상남도 고성군 고성읍 성내로 130",
    "phone": "055-670-2374",
    "category": "시군구청",
    "lat": 34.9727387056627,
    "lng": 128.32231329932
  },
  {
    "name": "남해군 주민복지과",
    "address": "경상남도 남해군 남해읍 망운로9번길 12",
    "phone": "055-860-3833",
    "category": "시군구청",
    "lat": 34.8378709500742,
    "lng": 127.892892737807
  },
  {
    "name": "하동군 주민행복과",
    "address": "경상남도 하동군 하동읍 군청로 23",
    "phone": "055-880-2334",
    "category": "시군구청",
    "lat": 35.067338852176,
    "lng": 127.751323018573
  },
  {
    "name": "산청군 주민복지과",
    "address": "경상남도 산청군 산청읍 산엔청로 1",
    "phone": "055-970-6853",
    "category": "시군구청",
    "lat": 35.4151686190511,
    "lng": 127.873112676479
  },
  {
    "name": "함양군 주민행복과",
    "address": "경상남도 함양군 함양읍 고운로 35",
    "phone": "055-960-5114",
    "category": "시군구청",
    "lat": 35.5215042019181,
    "lng": 127.724508443674
  },
  {
    "name": "거창군 복지정책과",
    "address": "경상남도 거창군 거창읍 중앙로 103",
    "phone": "055-940-3125",
    "category": "시군구청",
    "lat": 35.6866823204409,
    "lng": 127.909545935695
  },
  {
    "name": "합천군 주민복지과",
    "address": "경상남도 합천군 합천읍 동서로 119",
    "phone": "055-930-3288",
    "category": "시군구청",
    "lat": 35.5666515213319,
    "lng": 128.165826183454
  },
  {
    "name": "경남경찰청",
    "address": "경상남도 창원시 의창구 상남로 289",
    "phone": "",
    "category": "경찰서",
    "lat": 35.239081127728,
    "lng": 128.695581412201
  },
  {
    "name": "창원중부경찰서",
    "address": "경상남도 창원시 의창구 상남로 177",
    "phone": "",
    "category": "경찰서"
  },
  {
    "name": "창원서부경찰서",
    "address": "경상남도 창원시 의창구 우곡로 10",
    "phone": "",
    "category": "경찰서",
    "lat": 35.2516975777937,
    "lng": 128.636851973138
  },
  {
    "name": "마산중부경찰서",
    "address": "경상남도 창원시 마산합포구 3.15대로 147",
    "phone": "",
    "category": "경찰서",
    "lat": 35.1922083143554,
    "lng": 128.564081784766
  },
  {
    "name": "진주경찰서",
    "address": "경상남도 진주시 비봉로24번길 3",
    "phone": "",
    "category": "경찰서",
    "lat": 35.192944167358,
    "lng": 128.081306903114
  },
  {
    "name": "진해경찰서",
    "address": "경상남도 창원시 진해구 진해대로 815",
    "phone": "",
    "category": "경찰서",
    "lat": 35.1564471673961,
    "lng": 128.703684875169
  },
  {
    "name": "통영경찰서",
    "address": "경상남도 통영시 광도면 죽림3로 53",
    "phone": "",
    "category": "경찰서",
    "lat": 34.8824825082009,
    "lng": 128.42000234466
  },
  {
    "name": "사천경찰서",
    "address": "경상남도 사천시 남일로 37",
    "phone": "",
    "category": "경찰서",
    "lat": 34.9332450654338,
    "lng": 128.080818073701
  },
  {
    "name": "밀양경찰서",
    "address": "경상남도 밀양시 상남면 밀양대로 1545",
    "phone": "",
    "category": "경찰서",
    "lat": 35.468924333043,
    "lng": 128.760624875963
  },
  {
    "name": "김해중부경찰서",
    "address": "경상남도 김해시 김해대로 2307",
    "phone": "",
    "category": "경찰서",
    "lat": 35.226329267661,
    "lng": 128.879511795185
  },
  {
    "name": "거제경찰서",
    "address": "경상남도 거제시 진목1길 2",
    "phone": "",
    "category": "경찰서",
    "lat": 34.898977407491,
    "lng": 128.686705439226
  },
  {
    "name": "양산경찰서",
    "address": "경상남도 양산시 물금읍 신주 4길 8",
    "phone": "",
    "category": "경찰서",
    "lat": 35.3382060993088,
    "lng": 129.016533725796
  },
  {
    "name": "거창경찰서",
    "address": "경상남도 거창군 거창읍 중앙로 97",
    "phone": "",
    "category": "경찰서",
    "lat": 35.6861484603538,
    "lng": 127.909004101545
  },
  {
    "name": "합천경찰서",
    "address": "경상남도 합천군 합천읍 황강체육공원로 67",
    "phone": "",
    "category": "경찰서",
    "lat": 35.5638799493131,
    "lng": 128.169677230497
  },
  {
    "name": "창녕경찰서",
    "address": "경상남도 창녕군 창녕읍 종로 38-6",
    "phone": "",
    "category": "경찰서",
    "lat": 35.540369591815,
    "lng": 128.500225227156
  },
  {
    "name": "함양경찰서",
    "address": "경상남도 함양군 함양읍 학사루길 12",
    "phone": "",
    "category": "경찰서",
    "lat": 35.5193493877216,
    "lng": 127.725832480955
  },
  {
    "name": "거제시보건소",
    "address": "경남 거제시 수양로 506",
    "phone": "",
    "category": "보건소",
    "lat": 34.8919308904292,
    "lng": 128.636662234842
  },
  {
    "name": "거창군보건소",
    "address": "경남 거창군 거창읍 거함대로 3079",
    "phone": "",
    "category": "보건소",
    "lat": 35.6810635906997,
    "lng": 127.898493523478
  },
  {
    "name": "고성군보건소",
    "address": "경남 고성군 고성읍 남포로79번길 103-3",
    "phone": "",
    "category": "보건소",
    "lat": 34.9695737543353,
    "lng": 128.315402934351
  },
  {
    "name": "김해시보건소",
    "address": "경남 김해시 분성로 227",
    "phone": "",
    "category": "보건소",
    "lat": 35.2324337801483,
    "lng": 128.870545889559
  },
  {
    "name": "남해군보건소",
    "address": "경남 남해군 남해읍 선소로 6",
    "phone": "",
    "category": "보건소",
    "lat": 34.8447498769141,
    "lng": 127.898785702774
  },
  {
    "name": "밀양시보건소",
    "address": "경남 밀양시 삼문중앙로 41",
    "phone": "",
    "category": "보건소",
    "lat": 35.4856701112926,
    "lng": 128.756060846072
  },
  {
    "name": "사천시보건소",
    "address": "경남 사천시 용현면 시청3길 43",
    "phone": "",
    "category": "보건소",
    "lat": 35.0048350266009,
    "lng": 128.064119797904
  },
  {
    "name": "산청군보건의료원",
    "address": "경남 산청군 산청읍 중앙로 97",
    "phone": "",
    "category": "보건소",
    "lat": 35.4160818973147,
    "lng": 127.884236050691
  },
  {
    "name": "양산시보건소",
    "address": "경남 양산시 중앙로 7-32",
    "phone": "",
    "category": "보건소",
    "lat": 35.3321571425744,
    "lng": 129.037994695879
  },
  {
    "name": "의령군보건소",
    "address": "경남 의령군 의령읍 의병로 8길 16",
    "phone": "",
    "category": "보건소",
    "lat": 35.3177751169182,
    "lng": 128.254552295984
  },
  {
    "name": "진주시보건소",
    "address": "경남 진주시 문산읍 월아산로 983",
    "phone": "",
    "category": "보건소",
    "lat": 35.159128687356,
    "lng": 128.163603640239
  },
  {
    "name": "창녕군보건소",
    "address": "경남 창녕군 창녕읍 우포2로 1189-35",
    "phone": "",
    "category": "보건소"
  },
  {
    "name": "창원시보건소",
    "address": "경남 창원시 성산구 중앙대로162번안길 8",
    "phone": "",
    "category": "보건소",
    "lat": 35.227790890287,
    "lng": 128.685542351987
  },
  {
    "name": "창원시마산보건소",
    "address": "경남 창원시 마산합포구 월영동북로 15",
    "phone": "",
    "category": "보건소",
    "lat": 35.1823985096714,
    "lng": 128.562899668408
  },
  {
    "name": "창원시진해보건소",
    "address": "경남 창원시 진해구 중원동로 62",
    "phone": "",
    "category": "보건소",
    "lat": 35.1498905879799,
    "lng": 128.661937693075
  },
  {
    "name": "통영시보건소",
    "address": "경남 통영시 안개4길 108",
    "phone": "",
    "category": "보건소",
    "lat": 34.8598079901343,
    "lng": 128.432014192291
  },
  {
    "name": "하동군보건소",
    "address": "경남 하동군 하동읍 군청로 31",
    "phone": "",
    "category": "보건소",
    "lat": 35.0669002864805,
    "lng": 127.75287354288
  },
  {
    "name": "함안군보건소",
    "address": "경남 함안군 가야읍 중앙남4길 10",
    "phone": "",
    "category": "보건소",
    "lat": 35.2757587210189,
    "lng": 128.410267484337
  },
  {
    "name": "함양군보건소",
    "address": "경남 함양군 함양읍 한들로 141",
    "phone": "",
    "category": "보건소",
    "lat": 35.5196762995622,
    "lng": 127.731781427714
  },
  {
    "name": "합천군보건소",
    "address": "경남 합천군 합천읍 동서로 39",
    "phone": "",
    "category": "보건소",
    "lat": 35.5679281116892,
    "lng": 128.156753359361
  },
  {
    "name": "의창동 행정복지센터",
    "address": "경상남도 창원시 의창구 의창동",
    "phone": "055-212-5400",
    "category": "행정복지센터",
    "lat": 35.2620326085633,
    "lng": 128.622865123713
  },
  {
    "name": "동읍 행정복지센터",
    "address": "경상남도 창원시 의창구 동읍",
    "phone": "",
    "category": "행정복지센터",
    "lat": 35.2847013679006,
    "lng": 128.682391858961
  },
  {
    "name": "북면 행정복지센터",
    "address": "경상남도 창원시 의창구 북면",
    "phone": "",
    "category": "행정복지센터",
    "lat": 35.3477803867698,
    "lng": 128.607040985916
  },
  {
    "name": "대산면 행정복지센터",
    "address": "경상남도 창원시 의창구 대산면",
    "phone": "",
    "category": "행정복지센터",
    "lat": 35.335364902053,
    "lng": 128.708256877819
  },
  {
    "name": "팔룡동 행정복지센터",
    "address": "경상남도 창원시 의창구 팔룡동",
    "phone": "",
    "category": "행정복지센터",
    "lat": 35.2554256323431,
    "lng": 128.612831808011
  },
  {
    "name": "명곡동 행정복지센터",
    "address": "경상남도 창원시 의창구 명곡동",
    "phone": "",
    "category": "행정복지센터",
    "lat": 35.25697249784,
    "lng": 128.650755416213
  },
  {
    "name": "봉림동 행정복지센터",
    "address": "경상남도 창원시 의창구 봉림동",
    "phone": "",
    "category": "행정복지센터",
    "lat": 35.2519257522822,
    "lng": 128.667572368538
  },
  {
    "name": "중앙동 행정복지센터",
    "address": "경상남도 창원시 성산구 중앙동",
    "phone": "055-272-5200",
    "category": "행정복지센터",
    "lat": 35.221091712714,
    "lng": 128.673688803063
  },
  {
    "name": "상남동 행정복지센터",
    "address": "경상남도 창원시 성산구 상남동",
    "phone": "055-272-5300",
    "category": "행정복지센터",
    "lat": 35.2162394978177,
    "lng": 128.687193298709
  },
  {
    "name": "웅남동 행정복지센터",
    "address": "경상남도 창원시 성산구 웅남동",
    "phone": "055-272-5700",
    "category": "행정복지센터",
    "lat": 35.2096960266067,
    "lng": 128.656702468337
  },
  {
    "name": "가음정동 행정복지센터",
    "address": "경상남도 창원시 성산구 가음정동",
    "phone": "055-272-5500",
    "category": "행정복지센터",
    "lat": 35.2083719827534,
    "lng": 128.68524284168
  },
  {
    "name": "반송동 행정복지센터",
    "address": "경상남도 창원시 성산구 반송동",
    "phone": "",
    "category": "행정복지센터",
    "lat": 35.2404170963624,
    "lng": 128.67319387935
  },
  {
    "name": "사파동 행정복지센터",
    "address": "경상남도 창원시 성산구 사파동",
    "phone": "",
    "category": "행정복지센터",
    "lat": 35.2230111008933,
    "lng": 128.699185890228
  },
  {
    "name": "성주동 행정복지센터",
    "address": "경상남도 창원시 성산구 성주동",
    "phone": "",
    "category": "행정복지센터",
    "lat": 35.1896913669124,
    "lng": 128.695062172053
  },
  {
    "name": "진동면 행정복지센터",
    "address": "경상남도 창원시 마산합포구 진동면",
    "phone": "",
    "category": "행정복지센터",
    "lat": 35.1151603215589,
    "lng": 128.488348655692
  },
  {
    "name": "진북면 행정복지센터",
    "address": "경상남도 창원시 마산합포구 진북면",
    "phone": "",
    "category": "행정복지센터",
    "lat": 35.1154620567239,
    "lng": 128.46744816659
  },
  {
    "name": "진전면 행정복지센터",
    "address": "경상남도 창원시 마산합포구 진전면",
    "phone": "",
    "category": "행정복지센터",
    "lat": 35.1028626531494,
    "lng": 128.418976797725
  },
  {
    "name": "구산면 행정복지센터",
    "address": "경상남도 창원시 마산합포구 구산면",
    "phone": "",
    "category": "행정복지센터",
    "lat": 35.1196814231662,
    "lng": 128.580842336194
  },
  {
    "name": "현동 행정복지센터",
    "address": "경상남도 창원시 마산합포구 현동",
    "phone": "",
    "category": "행정복지센터",
    "lat": 35.1498879001074,
    "lng": 128.553792117888
  },
  {
    "name": "가포동 행정복지센터",
    "address": "경상남도 창원시 마산합포구 가포동",
    "phone": "",
    "category": "행정복지센터",
    "lat": 35.1695519621351,
    "lng": 128.572038898109
  },
  {
    "name": "월영동 행정복지센터",
    "address": "경상남도 창원시 마산합포구 월영동",
    "phone": "",
    "category": "행정복지센터",
    "lat": 35.1741600788586,
    "lng": 128.558016561748
  },
  {
    "name": "문화동 행정복지센터",
    "address": "경상남도 창원시 마산합포구 문화동",
    "phone": "",
    "category": "행정복지센터",
    "lat": 35.1878486937468,
    "lng": 128.556574064754
  },
  {
    "name": "반월중앙동 행정복지센터",
    "address": "경상남도 창원시 마산합포구 반월중앙동",
    "phone": "",
    "category": "행정복지센터",
    "lat": 35.1940924244062,
    "lng": 128.564132506568
  },
  {
    "name": "완월동 행정복지센터",
    "address": "경상남도 창원시 마산합포구 완월동",
    "phone": "",
    "category": "행정복지센터",
    "lat": 35.1980689193186,
    "lng": 128.551226619697
  },
  {
    "name": "자산동 행정복지센터",
    "address": "경상남도 창원시 마산합포구 자산동",
    "phone": "",
    "category": "행정복지센터",
    "lat": 35.2054922007323,
    "lng": 128.565457953384
  },
  {
    "name": "동서동 행정복지센터",
    "address": "경상남도 창원시 마산합포구 동서동",
    "phone": "",
    "category": "행정복지센터",
    "lat": 35.2087831844856,
    "lng": 128.578531295132
  },
  {
    "name": "오동동 행정복지센터",
    "address": "경상남도 창원시 마산합포구 오동동",
    "phone": "",
    "category": "행정복지센터",
    "lat": 35.2087831844856,
    "lng": 128.578531295132
  },
  {
    "name": "교방동 행정복지센터",
    "address": "경상남도 창원시 마산합포구 교방동",
    "phone": "",
    "category": "행정복지센터",
    "lat": 35.2143429100237,
    "lng": 128.566251648628
  },
  {
    "name": "합포동 행정복지센터",
    "address": "경상남도 창원시 마산합포구 합포동",
    "phone": "",
    "category": "행정복지센터",
    "lat": 35.2109657321392,
    "lng": 128.579241204748
  },
  {
    "name": "산호동 행정복지센터",
    "address": "경상남도 창원시 마산합포구 산호동",
    "phone": "",
    "category": "행정복지센터",
    "lat": 35.2160543574231,
    "lng": 128.585977212791
  },
  {
    "name": "내서읍 행정복지센터",
    "address": "경상남도 창원시 마산회원구 내서읍",
    "phone": "",
    "category": "행정복지센터",
    "lat": 35.2467853123731,
    "lng": 128.507669257485
  },
  {
    "name": "회원1동 행정복지센터",
    "address": "경상남도 창원시 마산회원구 회원1동",
    "phone": "",
    "category": "행정복지센터",
    "lat": 35.218234271397,
    "lng": 128.574185258784
  },
  {
    "name": "회원2동 행정복지센터",
    "address": "경상남도 창원시 마산회원구 회원2동",
    "phone": "",
    "category": "행정복지센터",
    "lat": 35.2165956356538,
    "lng": 128.559859501256
  },
  {
    "name": "석전동 행정복지센터",
    "address": "경상남도 창원시 마산회원구 석전동",
    "phone": "",
    "category": "행정복지센터",
    "lat": 35.2293863941034,
    "lng": 128.56819711454
  },
  {
    "name": "양덕1동 행정복지센터",
    "address": "경상남도 창원시 마산회원구 양덕1동",
    "phone": "",
    "category": "행정복지센터",
    "lat": 35.2323024647889,
    "lng": 128.586201190489
  },
  {
    "name": "양덕2동 행정복지센터",
    "address": "경상남도 창원시 마산회원구 양덕2동",
    "phone": "",
    "category": "행정복지센터",
    "lat": 35.2291817832141,
    "lng": 128.583908563517
  },
  {
    "name": "합성1동 행정복지센터",
    "address": "경상남도 창원시 마산회원구 합성1동",
    "phone": "",
    "category": "행정복지센터",
    "lat": 35.2421628191971,
    "lng": 128.583932495999
  },
  {
    "name": "합성2동 행정복지센터",
    "address": "경상남도 창원시 마산회원구 합성2동",
    "phone": "",
    "category": "행정복지센터",
    "lat": 35.239021840959,
    "lng": 128.586767042971
  },
  {
    "name": "구암1동 행정복지센터",
    "address": "경상남도 창원시 마산회원구 구암1동",
    "phone": "",
    "category": "행정복지센터",
    "lat": 35.2500013857572,
    "lng": 128.595071403167
  },
  {
    "name": "구암2동 행정복지센터",
    "address": "경상남도 창원시 마산회원구 구암2동",
    "phone": "",
    "category": "행정복지센터",
    "lat": 35.2490090669703,
    "lng": 128.598422551607
  },
  {
    "name": "봉암동 행정복지센터",
    "address": "경상남도 창원시 마산회원구 봉암동",
    "phone": "",
    "category": "행정복지센터",
    "lat": 35.2176179965692,
    "lng": 128.602467523542
  },
  {
    "name": "웅천동 행정복지센터",
    "address": "경상남도 창원시 진해구 웅천동",
    "phone": "",
    "category": "행정복지센터",
    "lat": 35.1113164168419,
    "lng": 128.749643433553
  },
  {
    "name": "웅동1동 행정복지센터",
    "address": "경상남도 창원시 진해구 웅동1동",
    "phone": "",
    "category": "행정복지센터",
    "lat": 35.1258740996464,
    "lng": 128.782704965167
  },
  {
    "name": "웅동2동 행정복지센터",
    "address": "경상남도 창원시 진해구 웅동2동",
    "phone": "",
    "category": "행정복지센터",
    "lat": 35.1012017875109,
    "lng": 128.814806700491
  },
  {
    "name": "용원동 행정복지센터",
    "address": "경상남도 창원시 진해구 용원동",
    "phone": "",
    "category": "행정복지센터",
    "lat": 35.1042546422871,
    "lng": 128.815799947998
  },
  {
    "name": "충무동 행정복지센터",
    "address": "경상남도 창원시 진해구 충무동",
    "phone": "",
    "category": "행정복지센터",
    "lat": 35.1518170771267,
    "lng": 128.667883781254
  },
  {
    "name": "여좌동 행정복지센터",
    "address": "경상남도 창원시 진해구 여좌동",
    "phone": "",
    "category": "행정복지센터",
    "lat": 35.1585498205314,
    "lng": 128.660365797702
  },
  {
    "name": "태백동 행정복지센터",
    "address": "경상남도 창원시 진해구 태백동",
    "phone": "",
    "category": "행정복지센터",
    "lat": 35.1674890582469,
    "lng": 128.665424893326
  },
  {
    "name": "경화동 행정복지센터",
    "address": "경상남도 창원시 진해구 경화동",
    "phone": "",
    "category": "행정복지센터",
    "lat": 35.1543440473174,
    "lng": 128.686892962301
  },
  {
    "name": "병암동 행정복지센터",
    "address": "경상남도 창원시 진해구 병암동",
    "phone": "",
    "category": "행정복지센터",
    "lat": 35.1549881775167,
    "lng": 128.689561833681
  },
  {
    "name": "석동 행정복지센터",
    "address": "경상남도 창원시 진해구 석동",
    "phone": "",
    "category": "행정복지센터",
    "lat": 35.1586340394403,
    "lng": 128.700031729411
  },
  {
    "name": "이동 행정복지센터",
    "address": "경상남도 창원시 진해구 이동",
    "phone": "",
    "category": "행정복지센터",
    "lat": 35.1497332987209,
    "lng": 128.701589002118
  },
  {
    "name": "자은동 행정복지센터",
    "address": "경상남도 창원시 진해구 자은동",
    "phone": "",
    "category": "행정복지센터",
    "lat": 35.1471122577556,
    "lng": 128.70545375036
  },
  {
    "name": "덕산동 행정복지센터",
    "address": "경상남도 창원시 진해구 덕산동",
    "phone": "",
    "category": "행정복지센터",
    "lat": 35.1415613936719,
    "lng": 128.694357539617
  },
  {
    "name": "풍호동 행정복지센터",
    "address": "경상남도 창원시 진해구 풍호동",
    "phone": "",
    "category": "행정복지센터",
    "lat": 35.1375798102012,
    "lng": 128.707321817312
  },
  {
    "name": "문산읍 행정복지센터",
    "address": "경상남도 진주시 문산읍",
    "phone": "055-749-3002",
    "category": "행정복지센터",
    "lat": 35.1691538074334,
    "lng": 128.164325231567
  },
  {
    "name": "내동면 행정복지센터",
    "address": "경상남도 진주시 내동면",
    "phone": "055-749-3032",
    "category": "행정복지센터",
    "lat": 35.1601785315477,
    "lng": 128.067889082008
  },
  {
    "name": "정촌면 행정복지센터",
    "address": "경상남도 진주시 정촌면",
    "phone": "055-749-3062",
    "category": "행정복지센터",
    "lat": 35.1312367483283,
    "lng": 128.10279442624
  },
  {
    "name": "금곡면 행정복지센터",
    "address": "경상남도 진주시 금곡면",
    "phone": "055-749-3092",
    "category": "행정복지센터",
    "lat": 35.0943915531618,
    "lng": 128.18786059839
  },
  {
    "name": "진성면 행정복지센터",
    "address": "경상남도 진주시 진성면",
    "phone": "055-749-3122",
    "category": "행정복지센터",
    "lat": 35.1849539698324,
    "lng": 128.223337045429
  },
  {
    "name": "일반성면 행정복지센터",
    "address": "경상남도 진주시 일반성면",
    "phone": "055-749-3152",
    "category": "행정복지센터",
    "lat": 35.1712791717551,
    "lng": 128.277166572225
  },
  {
    "name": "이반성면 행정복지센터",
    "address": "경상남도 진주시 이반성면",
    "phone": "055-749-3182",
    "category": "행정복지센터",
    "lat": 35.1692005914393,
    "lng": 128.326328515859
  },
  {
    "name": "사봉면 행정복지센터",
    "address": "경상남도 진주시 사봉면",
    "phone": "055-749-3702",
    "category": "행정복지센터",
    "lat": 35.1887310619719,
    "lng": 128.270360587286
  },
  {
    "name": "지수면 행정복지센터",
    "address": "경상남도 진주시 지수면",
    "phone": "055-749-3732",
    "category": "행정복지센터",
    "lat": 35.2350536186244,
    "lng": 128.269623700446
  },
  {
    "name": "대곡면 행정복지센터",
    "address": "경상남도 진주시 대곡면",
    "phone": "055-749-3762",
    "category": "행정복지센터",
    "lat": 35.2643026729946,
    "lng": 128.169386015517
  },
  {
    "name": "금산면 행정복지센터",
    "address": "경상남도 진주시 금산면",
    "phone": "055-749-3792",
    "category": "행정복지센터",
    "lat": 35.214014258179,
    "lng": 128.147951810273
  },
  {
    "name": "집현면 행정복지센터",
    "address": "경상남도 진주시 집현면",
    "phone": "055-749-3822",
    "category": "행정복지센터",
    "lat": 35.2390259383814,
    "lng": 128.086340654273
  },
  {
    "name": "미천면 행정복지센터",
    "address": "경상남도 진주시 미천면",
    "phone": "055-749-3852",
    "category": "행정복지센터",
    "lat": 35.2992235623601,
    "lng": 128.115389953383
  },
  {
    "name": "명석면 행정복지센터",
    "address": "경상남도 진주시 명석면",
    "phone": "055-749-3882",
    "category": "행정복지센터",
    "lat": 35.2195474676189,
    "lng": 128.040338594136
  },
  {
    "name": "대평면 행정복지센터",
    "address": "경상남도 진주시 대평면",
    "phone": "055-749-3912",
    "category": "행정복지센터",
    "lat": 35.2326274072898,
    "lng": 127.960939474104
  },
  {
    "name": "수곡면 행정복지센터",
    "address": "경상남도 진주시 수곡면",
    "phone": "055-749-3942",
    "category": "행정복지센터",
    "lat": 35.1985989789388,
    "lng": 127.932169505873
  },
  {
    "name": "천전동 행정복지센터",
    "address": "경상남도 진주시 천전동",
    "phone": "055-749-4001",
    "category": "행정복지센터",
    "lat": 35.1807578124987,
    "lng": 128.084848953715
  },
  {
    "name": "성북동 행정복지센터",
    "address": "경상남도 진주시 성북동",
    "phone": "055-749-4041",
    "category": "행정복지센터",
    "lat": 35.1929156441695,
    "lng": 128.076648584036
  },
  {
    "name": "중앙동 행정복지센터",
    "address": "경상남도 진주시 중앙동",
    "phone": "055-749-4083",
    "category": "행정복지센터",
    "lat": 35.1920769108122,
    "lng": 128.086193969614
  },
  {
    "name": "상봉동 행정복지센터",
    "address": "경상남도 진주시 상봉동",
    "phone": "055-749-4123",
    "category": "행정복지센터",
    "lat": 35.1985678395581,
    "lng": 128.075111269302
  },
  {
    "name": "상대동 행정복지센터",
    "address": "경상남도 진주시 상대동",
    "phone": "055-749-4161",
    "category": "행정복지센터",
    "lat": 35.1800770345845,
    "lng": 128.111814419354
  },
  {
    "name": "하대동 행정복지센터",
    "address": "경상남도 진주시 하대동",
    "phone": "055-749-4253",
    "category": "행정복지센터",
    "lat": 35.1893640873663,
    "lng": 128.127403704554
  },
  {
    "name": "상평동 행정복지센터",
    "address": "경상남도 진주시 상평동",
    "phone": "055-749-4282",
    "category": "행정복지센터",
    "lat": 35.1760856990492,
    "lng": 128.109103586641
  },
  {
    "name": "초장동 행정복지센터",
    "address": "경상남도 진주시 초장동",
    "phone": "055-749-4402",
    "category": "행정복지센터",
    "lat": 35.2045597517917,
    "lng": 128.114572658399
  },
  {
    "name": "평거동 행정복지센터",
    "address": "경상남도 진주시 평거동",
    "phone": "055-749-4433",
    "category": "행정복지센터",
    "lat": 35.1738211142879,
    "lng": 128.065384700633
  },
  {
    "name": "신안동 행정복지센터",
    "address": "경상남도 진주시 신안동",
    "phone": "055-749-4461",
    "category": "행정복지센터",
    "lat": 35.1845074658307,
    "lng": 128.069010895263
  },
  {
    "name": "이현동 행정복지센터",
    "address": "경상남도 진주시 이현동",
    "phone": "055-749-4482",
    "category": "행정복지센터",
    "lat": 35.1928312626471,
    "lng": 128.061706572663
  },
  {
    "name": "판문동 행정복지센터",
    "address": "경상남도 진주시 판문동",
    "phone": "055-749-4501",
    "category": "행정복지센터",
    "lat": 35.1876559830497,
    "lng": 128.039053612367
  },
  {
    "name": "가호동 행정복지센터",
    "address": "경상남도 진주시 가호동",
    "phone": "055-749-4533",
    "category": "행정복지센터",
    "lat": 35.1599603460335,
    "lng": 128.10665889673
  },
  {
    "name": "충무공동 행정복지센터",
    "address": "경상남도 진주시 충무공동",
    "phone": "055-749-4560",
    "category": "행정복지센터",
    "lat": 35.1748715455863,
    "lng": 128.150373801935
  },
  {
    "name": "산양읍 행정복지센터",
    "address": "경상남도 통영시 산양읍",
    "phone": "055-650-3500",
    "category": "행정복지센터",
    "lat": 34.803523565867,
    "lng": 128.386233403232
  },
  {
    "name": "용남면 행정복지센터",
    "address": "경상남도 통영시 용남면",
    "phone": "055-650-3524",
    "category": "행정복지센터",
    "lat": 34.8677216217377,
    "lng": 128.442399210645
  },
  {
    "name": "광도면 행정복지센터",
    "address": "경상남도 통영시 광도면",
    "phone": "055-650-3560",
    "category": "행정복지센터",
    "lat": 34.899816733574,
    "lng": 128.406898172064
  },
  {
    "name": "도산면 행정복지센터",
    "address": "경상남도 통영시 도산면",
    "phone": "",
    "category": "행정복지센터",
    "lat": 34.9032314622803,
    "lng": 128.361908455874
  },
  {
    "name": "욕지면 행정복지센터",
    "address": "경상남도 통영시 욕지면",
    "phone": "",
    "category": "행정복지센터",
    "lat": 34.6363593419351,
    "lng": 128.263413838072
  },
  {
    "name": "한산면 행정복지센터",
    "address": "경상남도 통영시 한산면",
    "phone": "",
    "category": "행정복지센터",
    "lat": 34.7671628765404,
    "lng": 128.507670217862
  },
  {
    "name": "사량면 행정복지센터",
    "address": "경상남도 통영시 사량면",
    "phone": "",
    "category": "행정복지센터",
    "lat": 34.8455136076962,
    "lng": 128.220071805183
  },
  {
    "name": "명정동 행정복지센터",
    "address": "경상남도 통영시 명정동",
    "phone": "055-650-3660",
    "category": "행정복지센터",
    "lat": 34.8524095365059,
    "lng": 128.412672556184
  },
  {
    "name": "중앙동 행정복지센터",
    "address": "경상남도 통영시 중앙동",
    "phone": "055-650-3680",
    "category": "행정복지센터",
    "lat": 34.8448324831896,
    "lng": 128.423086397475
  },
  {
    "name": "정량동 행정복지센터",
    "address": "경상남도 통영시 정량동",
    "phone": "055-650-3700",
    "category": "행정복지센터",
    "lat": 34.8479425295669,
    "lng": 128.435769681857
  },
  {
    "name": "북신동 행정복지센터",
    "address": "경상남도 통영시 북신동",
    "phone": "055-650-3720",
    "category": "행정복지센터",
    "lat": 34.8570502525318,
    "lng": 128.425579864012
  },
  {
    "name": "무전동 행정복지센터",
    "address": "경상남도 통영시 무전동",
    "phone": "055-650-3740",
    "category": "행정복지센터",
    "lat": 34.8589635944091,
    "lng": 128.429046283282
  },
  {
    "name": "도천동 행정복지센터",
    "address": "경상남도 통영시 도천동",
    "phone": "055-650-3760",
    "category": "행정복지센터",
    "lat": 34.8370404358761,
    "lng": 128.413599261965
  },
  {
    "name": "미수동 행정복지센터",
    "address": "경상남도 통영시 미수동",
    "phone": "055-650-3800",
    "category": "행정복지센터",
    "lat": 34.8304013187656,
    "lng": 128.405982970409
  },
  {
    "name": "봉평동 행정복지센터",
    "address": "경상남도 통영시 봉평동",
    "phone": "055-650-3840",
    "category": "행정복지센터",
    "lat": 34.822910899113,
    "lng": 128.414887925305
  },
  {
    "name": "사천읍 행정복지센터",
    "address": "경상남도 사천시 사천읍",
    "phone": "055-831-5014",
    "category": "행정복지센터",
    "lat": 35.0876951067403,
    "lng": 128.087755616755
  },
  {
    "name": "용현면 행정복지센터",
    "address": "경상남도 사천시 용현면",
    "phone": "055-831-5110",
    "category": "행정복지센터",
    "lat": 35.0136711392098,
    "lng": 128.061327098779
  },
  {
    "name": "곤명면 행정복지센터",
    "address": "경상남도 사천시 곤명면",
    "phone": "055-831-5200",
    "category": "행정복지센터",
    "lat": 35.1119381541406,
    "lng": 127.941593019082
  },
  {
    "name": "곤양면 행정복지센터",
    "address": "경상남도 사천시 곤양면",
    "phone": "055-831-5170",
    "category": "행정복지센터",
    "lat": 35.057500705341,
    "lng": 127.95963280613
  },
  {
    "name": "사남면 행정복지센터",
    "address": "경상남도 사천시 사남면",
    "phone": "055-831-5080",
    "category": "행정복지센터",
    "lat": 35.0525545488098,
    "lng": 128.075219526026
  },
  {
    "name": "서포면 행정복지센터",
    "address": "경상남도 사천시 서포면",
    "phone": "055-831-5230",
    "category": "행정복지센터",
    "lat": 35.0061075610367,
    "lng": 127.97802749124
  },
  {
    "name": "정동면 행정복지센터",
    "address": "경상남도 사천시 정동면",
    "phone": "055-831-5050",
    "category": "행정복지센터",
    "lat": 35.056086498766,
    "lng": 128.123876176644
  },
  {
    "name": "축동면 행정복지센터",
    "address": "경상남도 사천시 축동면",
    "phone": "055-831-5140",
    "category": "행정복지센터",
    "lat": 35.1098420933812,
    "lng": 128.085351646579
  },
  {
    "name": "벌용동 행정복지센터",
    "address": "경상남도 사천시 벌용동",
    "phone": "055-831-5350",
    "category": "행정복지센터",
    "lat": 34.9440115311589,
    "lng": 128.079440014097
  },
  {
    "name": "남양동 행정복지센터",
    "address": "경상남도 사천시 남양동",
    "phone": "055-831-5410",
    "category": "행정복지센터",
    "lat": 34.970309173542,
    "lng": 128.063058139579
  },
  {
    "name": "선구동 행정복지센터",
    "address": "경상남도 사천시 선구동",
    "phone": "055-831-5290",
    "category": "행정복지센터",
    "lat": 34.929769879047,
    "lng": 128.072170264119
  },
  {
    "name": "동서금동 행정복지센터",
    "address": "경상남도 사천시 동서금동",
    "phone": "055-831-5320",
    "category": "행정복지센터",
    "lat": 34.9300804026945,
    "lng": 128.08430501849
  },
  {
    "name": "동서동 행정복지센터",
    "address": "경상남도 사천시 동서동",
    "phone": "055-831-5260",
    "category": "행정복지센터",
    "lat": 34.9285745883159,
    "lng": 128.068705114103
  },
  {
    "name": "향촌동 행정복지센터",
    "address": "경상남도 사천시 향촌동",
    "phone": "055-831-5380",
    "category": "행정복지센터",
    "lat": 34.9338452078738,
    "lng": 128.093465043013
  },
  {
    "name": "북부동 행정복지센터",
    "address": "경상남도 김해시 북부동",
    "phone": "055-359-1671",
    "category": "행정복지센터",
    "lat": 35.2623341149956,
    "lng": 128.867564909697
  },
  {
    "name": "활천동 행정복지센터",
    "address": "경상남도 김해시 활천동",
    "phone": "055-359-1861",
    "category": "행정복지센터",
    "lat": 35.2289059830973,
    "lng": 128.899839569841
  },
  {
    "name": "상동면 행정복지센터",
    "address": "경상남도 김해시 상동면",
    "phone": "055-359-1440",
    "category": "행정복지센터",
    "lat": 35.3077287293872,
    "lng": 128.930418508836
  },
  {
    "name": "장유3동 행정복지센터",
    "address": "경상남도 김해시 장유3동",
    "phone": "055-359-8920",
    "category": "행정복지센터",
    "lat": 35.1776788440875,
    "lng": 128.806095504259
  },
  {
    "name": "부원동 행정복지센터",
    "address": "경상남도 김해시 부원동",
    "phone": "055-359-1571",
    "category": "행정복지센터",
    "lat": 35.2287280519006,
    "lng": 128.886559224998
  },
  {
    "name": "진영읍 행정복지센터",
    "address": "경상남도 김해시 진영읍",
    "phone": "",
    "category": "행정복지센터",
    "lat": 35.3044678767131,
    "lng": 128.736863019424
  },
  {
    "name": "주촌면 행정복지센터",
    "address": "경상남도 김해시 주촌면",
    "phone": "",
    "category": "행정복지센터",
    "lat": 35.2357219683869,
    "lng": 128.830659015499
  },
  {
    "name": "진례면 행정복지센터",
    "address": "경상남도 김해시 진례면",
    "phone": "",
    "category": "행정복지센터",
    "lat": 35.2490641531016,
    "lng": 128.747720901894
  },
  {
    "name": "한림면 행정복지센터",
    "address": "경상남도 김해시 한림면",
    "phone": "",
    "category": "행정복지센터",
    "lat": 35.3205843446362,
    "lng": 128.802156692165
  },
  {
    "name": "생림면 행정복지센터",
    "address": "경상남도 김해시 생림면",
    "phone": "",
    "category": "행정복지센터",
    "lat": 35.3281454750583,
    "lng": 128.849275392053
  },
  {
    "name": "대동면 행정복지센터",
    "address": "경상남도 김해시 대동면",
    "phone": "",
    "category": "행정복지센터",
    "lat": 35.2422910007499,
    "lng": 128.980274090239
  },
  {
    "name": "동상동 행정복지센터",
    "address": "경상남도 김해시 동상동",
    "phone": "",
    "category": "행정복지센터",
    "lat": 35.2368400511319,
    "lng": 128.883465067321
  },
  {
    "name": "회현동 행정복지센터",
    "address": "경상남도 김해시 회현동",
    "phone": "",
    "category": "행정복지센터",
    "lat": 35.2315458234854,
    "lng": 128.878290306773
  },
  {
    "name": "내외동 행정복지센터",
    "address": "경상남도 김해시 내외동",
    "phone": "",
    "category": "행정복지센터",
    "lat": 35.2352136162793,
    "lng": 128.864658218805
  },
  {
    "name": "칠산서부동 행정복지센터",
    "address": "경상남도 김해시 칠산서부동",
    "phone": "",
    "category": "행정복지센터",
    "lat": 35.2228920051476,
    "lng": 128.871000704448
  },
  {
    "name": "삼안동 행정복지센터",
    "address": "경상남도 김해시 삼안동",
    "phone": "",
    "category": "행정복지센터",
    "lat": 35.2438502891609,
    "lng": 128.907455851987
  },
  {
    "name": "불암동 행정복지센터",
    "address": "경상남도 김해시 불암동",
    "phone": "",
    "category": "행정복지센터",
    "lat": 35.2220749357757,
    "lng": 128.926748767438
  },
  {
    "name": "장유1동 행정복지센터",
    "address": "경상남도 김해시 장유1동",
    "phone": "",
    "category": "행정복지센터",
    "lat": 35.2012148013134,
    "lng": 128.812839697614
  },
  {
    "name": "장유2동 행정복지센터",
    "address": "경상남도 김해시 장유2동",
    "phone": "",
    "category": "행정복지센터",
    "lat": 35.1971033599817,
    "lng": 128.797742392563
  },
  {
    "name": "삼랑진읍 행정복지센터",
    "address": "경상남도 밀양시 삼랑진읍",
    "phone": "055-359-5801",
    "category": "행정복지센터",
    "lat": 35.3958953055396,
    "lng": 128.83772908189
  },
  {
    "name": "하남읍 행정복지센터",
    "address": "경상남도 밀양시 하남읍",
    "phone": "055-359-5802",
    "category": "행정복지센터",
    "lat": 35.3753738864292,
    "lng": 128.711098060317
  },
  {
    "name": "부북면 행정복지센터",
    "address": "경상남도 밀양시 부북면",
    "phone": "055-359-5803",
    "category": "행정복지센터",
    "lat": 35.5112083734156,
    "lng": 128.729745804963
  },
  {
    "name": "상동면 행정복지센터",
    "address": "경상남도 밀양시 상동면",
    "phone": "055-359-5804",
    "category": "행정복지센터",
    "lat": 35.5528172856187,
    "lng": 128.763324421609
  },
  {
    "name": "산외면 행정복지센터",
    "address": "경상남도 밀양시 산외면",
    "phone": "055-359-5805",
    "category": "행정복지센터",
    "lat": 35.5026609166691,
    "lng": 128.814917817854
  },
  {
    "name": "산내면 행정복지센터",
    "address": "경상남도 밀양시 산내면",
    "phone": "055-359-5806",
    "category": "행정복지센터",
    "lat": 35.5842603260984,
    "lng": 128.880854967038
  },
  {
    "name": "단장면 행정복지센터",
    "address": "경상남도 밀양시 단장면",
    "phone": "055-359-5807",
    "category": "행정복지센터",
    "lat": 35.5152655896839,
    "lng": 128.875972446759
  },
  {
    "name": "상남면 행정복지센터",
    "address": "경상남도 밀양시 상남면",
    "phone": "055-359-5808",
    "category": "행정복지센터",
    "lat": 35.4483992882627,
    "lng": 128.753523409368
  },
  {
    "name": "초동면 행정복지센터",
    "address": "경상남도 밀양시 초동면",
    "phone": "055-359-5809",
    "category": "행정복지센터",
    "lat": 35.4216281760999,
    "lng": 128.672917247381
  },
  {
    "name": "무안면 행정복지센터",
    "address": "경상남도 밀양시 무안면",
    "phone": "055-359-5810",
    "category": "행정복지센터",
    "lat": 35.4707122682009,
    "lng": 128.651336977932
  },
  {
    "name": "청도면 행정복지센터",
    "address": "경상남도 밀양시 청도면",
    "phone": "055-359-5811",
    "category": "행정복지센터",
    "lat": 35.549697157997,
    "lng": 128.623896743639
  },
  {
    "name": "내일동 행정복지센터",
    "address": "경상남도 밀양시 내일동",
    "phone": "055-359-5812",
    "category": "행정복지센터",
    "lat": 35.4936937456701,
    "lng": 128.754167936421
  },
  {
    "name": "내이동 행정복지센터",
    "address": "경상남도 밀양시 내이동",
    "phone": "055-359-5813",
    "category": "행정복지센터",
    "lat": 35.4971188045882,
    "lng": 128.74617598973
  },
  {
    "name": "교동 행정복지센터",
    "address": "경상남도 밀양시 교동",
    "phone": "055-359-5814",
    "category": "행정복지센터",
    "lat": 35.5109851792361,
    "lng": 128.75715397471
  },
  {
    "name": "삼문동 행정복지센터",
    "address": "경상남도 밀양시 삼문동",
    "phone": "055-359-5815",
    "category": "행정복지센터",
    "lat": 35.4831729339258,
    "lng": 128.753088669954
  },
  {
    "name": "가곡동 행정복지센터",
    "address": "경상남도 밀양시 가곡동",
    "phone": "055-359-6950",
    "category": "행정복지센터",
    "lat": 35.4787411526036,
    "lng": 128.764573673165
  },
  {
    "name": "일운면 행정복지센터",
    "address": "경상남도 거제시 일운면",
    "phone": "055-639-6001",
    "category": "행정복지센터",
    "lat": 34.8296640389977,
    "lng": 128.703143487497
  },
  {
    "name": "동부면 행정복지센터",
    "address": "경상남도 거제시 동부면",
    "phone": "055-639-6002",
    "category": "행정복지센터",
    "lat": 34.8215720892901,
    "lng": 128.608217661284
  },
  {
    "name": "남부면 행정복지센터",
    "address": "경상남도 거제시 남부면",
    "phone": "055-639-6003",
    "category": "행정복지센터",
    "lat": 34.7321745213029,
    "lng": 128.610147395791
  },
  {
    "name": "거제면 행정복지센터",
    "address": "경상남도 거제시 거제면",
    "phone": "055-639-6004",
    "category": "행정복지센터",
    "lat": 34.8510437105882,
    "lng": 128.590427875294
  },
  {
    "name": "둔덕면 행정복지센터",
    "address": "경상남도 거제시 둔덕면",
    "phone": "055-639-6005",
    "category": "행정복지센터",
    "lat": 34.8369264948153,
    "lng": 128.505119651442
  },
  {
    "name": "사등면 행정복지센터",
    "address": "경상남도 거제시 사등면",
    "phone": "055-639-6006",
    "category": "행정복지센터",
    "lat": 34.9189395086403,
    "lng": 128.522276169021
  },
  {
    "name": "연초면 행정복지센터",
    "address": "경상남도 거제시 연초면",
    "phone": "055-639-6007",
    "category": "행정복지센터",
    "lat": 34.9145644239732,
    "lng": 128.656635715269
  },
  {
    "name": "하청면 행정복지센터",
    "address": "경상남도 거제시 하청면",
    "phone": "055-639-6008",
    "category": "행정복지센터",
    "lat": 34.9553318073506,
    "lng": 128.655205144336
  },
  {
    "name": "장목면 행정복지센터",
    "address": "경상남도 거제시 장목면",
    "phone": "055-639-6009",
    "category": "행정복지센터",
    "lat": 34.9865258218334,
    "lng": 128.682237779067
  },
  {
    "name": "장승포동 행정복지센터",
    "address": "경상남도 거제시 장승포동",
    "phone": "055-639-6010",
    "category": "행정복지센터",
    "lat": 34.8673689625637,
    "lng": 128.727194788555
  },
  {
    "name": "능포동 행정복지센터",
    "address": "경상남도 거제시 능포동",
    "phone": "055-639-6012",
    "category": "행정복지센터",
    "lat": 34.8792070052426,
    "lng": 128.734599326589
  },
  {
    "name": "아주동 행정복지센터",
    "address": "경상남도 거제시 아주동",
    "phone": "055-639-6013",
    "category": "행정복지센터",
    "lat": 34.8660090889378,
    "lng": 128.692131172751
  },
  {
    "name": "옥포1동 행정복지센터",
    "address": "경상남도 거제시 옥포1동",
    "phone": "055-639-6014",
    "category": "행정복지센터",
    "lat": 34.8909812199304,
    "lng": 128.692656286677
  },
  {
    "name": "옥포2동 행정복지센터",
    "address": "경상남도 거제시 옥포2동",
    "phone": "055-639-6015",
    "category": "행정복지센터",
    "lat": 34.8966075344371,
    "lng": 128.687556050562
  },
  {
    "name": "장평동 행정복지센터",
    "address": "경상남도 거제시 장평동",
    "phone": "055-639-6016",
    "category": "행정복지센터",
    "lat": 34.8894439413352,
    "lng": 128.609443105247
  },
  {
    "name": "고현동 행정복지센터",
    "address": "경상남도 거제시 고현동",
    "phone": "055-639-6017",
    "category": "행정복지센터",
    "lat": 34.8822808816063,
    "lng": 128.618381262237
  },
  {
    "name": "상문동 행정복지센터",
    "address": "경상남도 거제시 상문동",
    "phone": "055-639-6018",
    "category": "행정복지센터",
    "lat": 34.8680668847408,
    "lng": 128.637961072743
  },
  {
    "name": "수양동 행정복지센터",
    "address": "경상남도 거제시 수양동",
    "phone": "055-639-6019",
    "category": "행정복지센터",
    "lat": 34.8878529145471,
    "lng": 128.646403977833
  },
  {
    "name": "양주동 행정복지센터",
    "address": "경상남도 양산시 양주동",
    "phone": "055-392-7460",
    "category": "행정복지센터",
    "lat": 35.3365037129191,
    "lng": 129.032269613474
  },
  {
    "name": "평산동 행정복지센터",
    "address": "경상남도 양산시 평산동",
    "phone": "055-392-6830",
    "category": "행정복지센터",
    "lat": 35.381562218047,
    "lng": 129.146974672453
  },
  {
    "name": "서창동 행정복지센터",
    "address": "경상남도 양산시 서창동",
    "phone": "055-392-6701",
    "category": "행정복지센터",
    "lat": 35.4162836482088,
    "lng": 129.173178447661
  },
  {
    "name": "덕계동 행정복지센터",
    "address": "경상남도 양산시 덕계동",
    "phone": "055-392-6851",
    "category": "행정복지센터",
    "lat": 35.3750222225169,
    "lng": 129.149287851041
  },
  {
    "name": "소주동 행정복지센터",
    "address": "경상남도 양산시 소주동",
    "phone": "055-392-6761",
    "category": "행정복지센터",
    "lat": 35.4075411471322,
    "lng": 129.157802988972
  },
  {
    "name": "물금읍 행정복지센터",
    "address": "경상남도 양산시 물금읍",
    "phone": "",
    "category": "행정복지센터",
    "lat": 35.3104192438843,
    "lng": 128.987276732779
  },
  {
    "name": "동면 행정복지센터",
    "address": "경상남도 양산시 동면",
    "phone": "",
    "category": "행정복지센터",
    "lat": 35.3235198494618,
    "lng": 129.061860910264
  },
  {
    "name": "원동면 행정복지센터",
    "address": "경상남도 양산시 원동면",
    "phone": "",
    "category": "행정복지센터",
    "lat": 35.364730014065,
    "lng": 128.918819901124
  },
  {
    "name": "상북면 행정복지센터",
    "address": "경상남도 양산시 상북면",
    "phone": "",
    "category": "행정복지센터",
    "lat": 35.4183556867407,
    "lng": 129.064363371184
  },
  {
    "name": "하북면 행정복지센터",
    "address": "경상남도 양산시 하북면",
    "phone": "",
    "category": "행정복지센터",
    "lat": 35.4892594465853,
    "lng": 129.086995475879
  },
  {
    "name": "중앙동 행정복지센터",
    "address": "경상남도 양산시 중앙동",
    "phone": "",
    "category": "행정복지센터",
    "lat": 35.345842365418,
    "lng": 129.040871217976
  },
  {
    "name": "삼성동 행정복지센터",
    "address": "경상남도 양산시 삼성동",
    "phone": "",
    "category": "행정복지센터",
    "lat": 35.3528216603957,
    "lng": 129.040606877741
  },
  {
    "name": "강서동 행정복지센터",
    "address": "경상남도 양산시 강서동",
    "phone": "",
    "category": "행정복지센터",
    "lat": 35.3451628353975,
    "lng": 129.026204243663
  },
  {
    "name": "의령읍 행정복지센터",
    "address": "경상남도 의령군 의령읍",
    "phone": "",
    "category": "행정복지센터",
    "lat": 35.3212278175313,
    "lng": 128.260456807629
  },
  {
    "name": "가례면 행정복지센터",
    "address": "경상남도 의령군 가례면",
    "phone": "",
    "category": "행정복지센터",
    "lat": 35.326749349258,
    "lng": 128.245287007838
  },
  {
    "name": "칠곡면 행정복지센터",
    "address": "경상남도 의령군 칠곡면",
    "phone": "",
    "category": "행정복지센터",
    "lat": 35.3414337236456,
    "lng": 128.192640495476
  },
  {
    "name": "대의면 행정복지센터",
    "address": "경상남도 의령군 대의면",
    "phone": "",
    "category": "행정복지센터",
    "lat": 35.371910260885,
    "lng": 128.108277356058
  },
  {
    "name": "화정면 행정복지센터",
    "address": "경상남도 의령군 화정면",
    "phone": "",
    "category": "행정복지센터",
    "lat": 35.2777133029637,
    "lng": 128.210833813747
  },
  {
    "name": "용덕면 행정복지센터",
    "address": "경상남도 의령군 용덕면",
    "phone": "",
    "category": "행정복지센터",
    "lat": 35.348204671823,
    "lng": 128.291161607255
  },
  {
    "name": "정곡면 행정복지센터",
    "address": "경상남도 의령군 정곡면",
    "phone": "",
    "category": "행정복지센터",
    "lat": 35.3805462001077,
    "lng": 128.326345524489
  },
  {
    "name": "지정면 행정복지센터",
    "address": "경상남도 의령군 지정면",
    "phone": "",
    "category": "행정복지센터",
    "lat": 35.3824866952156,
    "lng": 128.385983449354
  },
  {
    "name": "낙서면 행정복지센터",
    "address": "경상남도 의령군 낙서면",
    "phone": "",
    "category": "행정복지센터",
    "lat": 35.4841412864325,
    "lng": 128.37723270162
  },
  {
    "name": "부림면 행정복지센터",
    "address": "경상남도 의령군 부림면",
    "phone": "",
    "category": "행정복지센터",
    "lat": 35.4664102342273,
    "lng": 128.324607785222
  },
  {
    "name": "봉수면 행정복지센터",
    "address": "경상남도 의령군 봉수면",
    "phone": "",
    "category": "행정복지센터",
    "lat": 35.4723220620875,
    "lng": 128.266199645935
  },
  {
    "name": "궁류면 행정복지센터",
    "address": "경상남도 의령군 궁류면",
    "phone": "",
    "category": "행정복지센터",
    "lat": 35.4473673891066,
    "lng": 128.249001652338
  },
  {
    "name": "유곡면 행정복지센터",
    "address": "경상남도 의령군 유곡면",
    "phone": "",
    "category": "행정복지센터",
    "lat": 35.4332568518352,
    "lng": 128.313598987761
  },
  {
    "name": "가야읍 행정복지센터",
    "address": "경상남도 함안군 가야읍",
    "phone": "",
    "category": "행정복지센터",
    "lat": 35.2722170382263,
    "lng": 128.408174194563
  },
  {
    "name": "칠원읍 행정복지센터",
    "address": "경상남도 함안군 칠원읍",
    "phone": "",
    "category": "행정복지센터",
    "lat": 35.3090179478081,
    "lng": 128.5182962013
  },
  {
    "name": "함안면 행정복지센터",
    "address": "경상남도 함안군 함안면",
    "phone": "",
    "category": "행정복지센터",
    "lat": 35.2420739825373,
    "lng": 128.423709440899
  },
  {
    "name": "군북면 행정복지센터",
    "address": "경상남도 함안군 군북면",
    "phone": "",
    "category": "행정복지센터",
    "lat": 35.2615613825268,
    "lng": 128.345061775498
  },
  {
    "name": "법수면 행정복지센터",
    "address": "경상남도 함안군 법수면",
    "phone": "",
    "category": "행정복지센터",
    "lat": 35.3155064178081,
    "lng": 128.355445979808
  },
  {
    "name": "대산면 행정복지센터",
    "address": "경상남도 함안군 대산면",
    "phone": "",
    "category": "행정복지센터",
    "lat": 35.3502062855957,
    "lng": 128.431575706831
  },
  {
    "name": "칠서면 행정복지센터",
    "address": "경상남도 함안군 칠서면",
    "phone": "",
    "category": "행정복지센터",
    "lat": 35.3335797053279,
    "lng": 128.497956344549
  },
  {
    "name": "칠북면 행정복지센터",
    "address": "경상남도 함안군 칠북면",
    "phone": "",
    "category": "행정복지센터",
    "lat": 35.3467294308858,
    "lng": 128.521698772522
  },
  {
    "name": "산인면 행정복지센터",
    "address": "경상남도 함안군 산인면",
    "phone": "",
    "category": "행정복지센터",
    "lat": 35.2792851044269,
    "lng": 128.424298980621
  },
  {
    "name": "여항면 행정복지센터",
    "address": "경상남도 함안군 여항면",
    "phone": "",
    "category": "행정복지센터",
    "lat": 35.2102329527681,
    "lng": 128.4345211388
  },
  {
    "name": "창녕읍 행정복지센터",
    "address": "경상남도 창녕군 창녕읍",
    "phone": "",
    "category": "행정복지센터",
    "lat": 35.5412894797239,
    "lng": 128.50077305203
  },
  {
    "name": "남지읍 행정복지센터",
    "address": "경상남도 창녕군 남지읍",
    "phone": "",
    "category": "행정복지센터",
    "lat": 35.389046443731,
    "lng": 128.477040981986
  },
  {
    "name": "고암면 행정복지센터",
    "address": "경상남도 창녕군 고암면",
    "phone": "",
    "category": "행정복지센터",
    "lat": 35.5763918887144,
    "lng": 128.510958475847
  },
  {
    "name": "성산면 행정복지센터",
    "address": "경상남도 창녕군 성산면",
    "phone": "",
    "category": "행정복지센터",
    "lat": 35.6287249328308,
    "lng": 128.493985843628
  },
  {
    "name": "대합면 행정복지센터",
    "address": "경상남도 창녕군 대합면",
    "phone": "",
    "category": "행정복지센터",
    "lat": 35.6137030890693,
    "lng": 128.472088769913
  },
  {
    "name": "이방면 행정복지센터",
    "address": "경상남도 창녕군 이방면",
    "phone": "",
    "category": "행정복지센터",
    "lat": 35.5771688082722,
    "lng": 128.387909031718
  },
  {
    "name": "유어면 행정복지센터",
    "address": "경상남도 창녕군 유어면",
    "phone": "",
    "category": "행정복지센터",
    "lat": 35.5080932361678,
    "lng": 128.411139146595
  },
  {
    "name": "대지면 행정복지센터",
    "address": "경상남도 창녕군 대지면",
    "phone": "",
    "category": "행정복지센터",
    "lat": 35.555584066339,
    "lng": 128.467857909129
  },
  {
    "name": "계성면 행정복지센터",
    "address": "경상남도 창녕군 계성면",
    "phone": "",
    "category": "행정복지센터",
    "lat": 35.4688466315922,
    "lng": 128.512918359668
  },
  {
    "name": "영산면 행정복지센터",
    "address": "경상남도 창녕군 영산면",
    "phone": "",
    "category": "행정복지센터",
    "lat": 35.4536468385519,
    "lng": 128.527939024735
  },
  {
    "name": "장마면 행정복지센터",
    "address": "경상남도 창녕군 장마면",
    "phone": "",
    "category": "행정복지센터",
    "lat": 35.4581556998893,
    "lng": 128.47291048672
  },
  {
    "name": "도천면 행정복지센터",
    "address": "경상남도 창녕군 도천면",
    "phone": "",
    "category": "행정복지센터",
    "lat": 35.435134896097,
    "lng": 128.518022212759
  },
  {
    "name": "길곡면 행정복지센터",
    "address": "경상남도 창녕군 길곡면",
    "phone": "",
    "category": "행정복지센터",
    "lat": 35.3870255673379,
    "lng": 128.568984801461
  },
  {
    "name": "부곡면 행정복지센터",
    "address": "경상남도 창녕군 부곡면",
    "phone": "",
    "category": "행정복지센터",
    "lat": 35.4348991221209,
    "lng": 128.602912490818
  },
  {
    "name": "고성읍 행정복지센터",
    "address": "경상남도 고성군 고성읍",
    "phone": "",
    "category": "행정복지센터",
    "lat": 34.9780627409928,
    "lng": 128.319336171774
  },
  {
    "name": "삼산면 행정복지센터",
    "address": "경상남도 고성군 삼산면",
    "phone": "",
    "category": "행정복지센터",
    "lat": 34.93689737199,
    "lng": 128.273819726913
  },
  {
    "name": "하일면 행정복지센터",
    "address": "경상남도 고성군 하일면",
    "phone": "",
    "category": "행정복지센터",
    "lat": 34.9434524826931,
    "lng": 128.192422189648
  },
  {
    "name": "하이면 행정복지센터",
    "address": "경상남도 고성군 하이면",
    "phone": "",
    "category": "행정복지센터",
    "lat": 34.928688697234,
    "lng": 128.12281004311
  },
  {
    "name": "상리면 행정복지센터",
    "address": "경상남도 고성군 상리면",
    "phone": "",
    "category": "행정복지센터",
    "lat": 34.999753796458,
    "lng": 128.186407895162
  },
  {
    "name": "대가면 행정복지센터",
    "address": "경상남도 고성군 대가면",
    "phone": "",
    "category": "행정복지센터",
    "lat": 35.0174650673079,
    "lng": 128.298517634556
  },
  {
    "name": "영현면 행정복지센터",
    "address": "경상남도 고성군 영현면",
    "phone": "",
    "category": "행정복지센터",
    "lat": 35.0540877557067,
    "lng": 128.205502083299
  },
  {
    "name": "영오면 행정복지센터",
    "address": "경상남도 고성군 영오면",
    "phone": "",
    "category": "행정복지센터",
    "lat": 35.1078274712066,
    "lng": 128.237656734178
  },
  {
    "name": "개천면 행정복지센터",
    "address": "경상남도 고성군 개천면",
    "phone": "",
    "category": "행정복지센터",
    "lat": 35.0987319004086,
    "lng": 128.258983112372
  },
  {
    "name": "거류면 행정복지센터",
    "address": "경상남도 고성군 거류면",
    "phone": "",
    "category": "행정복지센터",
    "lat": 34.9917401588512,
    "lng": 128.404242067647
  },
  {
    "name": "구만면 행정복지센터",
    "address": "경상남도 고성군 구만면",
    "phone": "",
    "category": "행정복지센터",
    "lat": 35.0879248737277,
    "lng": 128.33502446456
  },
  {
    "name": "회화면 행정복지센터",
    "address": "경상남도 고성군 회화면",
    "phone": "",
    "category": "행정복지센터",
    "lat": 35.0603329792025,
    "lng": 128.373272938478
  },
  {
    "name": "마암면 행정복지센터",
    "address": "경상남도 고성군 마암면",
    "phone": "",
    "category": "행정복지센터",
    "lat": 35.0551359849192,
    "lng": 128.336660713505
  },
  {
    "name": "동해면 행정복지센터",
    "address": "경상남도 고성군 동해면",
    "phone": "",
    "category": "행정복지센터",
    "lat": 35.0414253259742,
    "lng": 128.421047708312
  },
  {
    "name": "남해읍 행정복지센터",
    "address": "경상남도 남해군 남해읍",
    "phone": "",
    "category": "행정복지센터",
    "lat": 34.838553445809,
    "lng": 127.893742451126
  },
  {
    "name": "이동면 행정복지센터",
    "address": "경상남도 남해군 이동면",
    "phone": "",
    "category": "행정복지센터",
    "lat": 34.7994326707676,
    "lng": 127.954674192293
  },
  {
    "name": "상주면 행정복지센터",
    "address": "경상남도 남해군 상주면",
    "phone": "",
    "category": "행정복지센터",
    "lat": 34.7238112711806,
    "lng": 127.985420225016
  },
  {
    "name": "삼동면 행정복지센터",
    "address": "경상남도 남해군 삼동면",
    "phone": "",
    "category": "행정복지센터",
    "lat": 34.8309939303435,
    "lng": 128.000998046173
  },
  {
    "name": "미조면 행정복지센터",
    "address": "경상남도 남해군 미조면",
    "phone": "",
    "category": "행정복지센터",
    "lat": 34.7120206495288,
    "lng": 128.046036616919
  },
  {
    "name": "남면 행정복지센터",
    "address": "경상남도 남해군 남면",
    "phone": "",
    "category": "행정복지센터",
    "lat": 34.7715431301208,
    "lng": 127.886644345395
  },
  {
    "name": "서면 행정복지센터",
    "address": "경상남도 남해군 서면",
    "phone": "",
    "category": "행정복지센터",
    "lat": 34.8100571566456,
    "lng": 127.838319096297
  },
  {
    "name": "고현면 행정복지센터",
    "address": "경상남도 남해군 고현면",
    "phone": "",
    "category": "행정복지센터",
    "lat": 34.895661547779,
    "lng": 127.874239747958
  },
  {
    "name": "설천면 행정복지센터",
    "address": "경상남도 남해군 설천면",
    "phone": "",
    "category": "행정복지센터",
    "lat": 34.9248288886285,
    "lng": 127.914016946112
  },
  {
    "name": "창선면 행정복지센터",
    "address": "경상남도 남해군 창선면",
    "phone": "",
    "category": "행정복지센터",
    "lat": 34.8577585514021,
    "lng": 128.012143306032
  },
  {
    "name": "하동읍 행정복지센터",
    "address": "경상남도 하동군 하동읍",
    "phone": "",
    "category": "행정복지센터",
    "lat": 35.0721272532131,
    "lng": 127.745260820046
  },
  {
    "name": "화개면 행정복지센터",
    "address": "경상남도 하동군 화개면",
    "phone": "",
    "category": "행정복지센터",
    "lat": 35.1883820741369,
    "lng": 127.625447752166
  },
  {
    "name": "악양면 행정복지센터",
    "address": "경상남도 하동군 악양면",
    "phone": "",
    "category": "행정복지센터",
    "lat": 35.1623206608427,
    "lng": 127.708931972841
  },
  {
    "name": "적량면 행정복지센터",
    "address": "경상남도 하동군 적량면",
    "phone": "",
    "category": "행정복지센터",
    "lat": 35.0832060800972,
    "lng": 127.776936681526
  },
  {
    "name": "횡천면 행정복지센터",
    "address": "경상남도 하동군 횡천면",
    "phone": "",
    "category": "행정복지센터",
    "lat": 35.1097615355477,
    "lng": 127.813999364311
  },
  {
    "name": "고전면 행정복지센터",
    "address": "경상남도 하동군 고전면",
    "phone": "",
    "category": "행정복지센터",
    "lat": 35.0221535536567,
    "lng": 127.817381325201
  },
  {
    "name": "금남면 행정복지센터",
    "address": "경상남도 하동군 금남면",
    "phone": "",
    "category": "행정복지센터",
    "lat": 34.9505144081674,
    "lng": 127.85911016191
  },
  {
    "name": "금성면 행정복지센터",
    "address": "경상남도 하동군 금성면",
    "phone": "",
    "category": "행정복지센터",
    "lat": 34.9637957720126,
    "lng": 127.790234357006
  },
  {
    "name": "진교면 행정복지센터",
    "address": "경상남도 하동군 진교면",
    "phone": "",
    "category": "행정복지센터",
    "lat": 35.0304746528234,
    "lng": 127.90091123619
  },
  {
    "name": "양보면 행정복지센터",
    "address": "경상남도 하동군 양보면",
    "phone": "",
    "category": "행정복지센터",
    "lat": 35.0473086568285,
    "lng": 127.845738284614
  },
  {
    "name": "북천면 행정복지센터",
    "address": "경상남도 하동군 북천면",
    "phone": "",
    "category": "행정복지센터",
    "lat": 35.1146972987785,
    "lng": 127.892851440139
  },
  {
    "name": "청암면 행정복지센터",
    "address": "경상남도 하동군 청암면",
    "phone": "",
    "category": "행정복지센터",
    "lat": 35.156413905882,
    "lng": 127.799472140069
  },
  {
    "name": "옥종면 행정복지센터",
    "address": "경상남도 하동군 옥종면",
    "phone": "",
    "category": "행정복지센터",
    "lat": 35.1829311951799,
    "lng": 127.879540409871
  },
  {
    "name": "산청읍 행정복지센터",
    "address": "경상남도 산청군 산청읍",
    "phone": "",
    "category": "행정복지센터",
    "lat": 35.4140538130171,
    "lng": 127.877614604635
  },
  {
    "name": "차황면 행정복지센터",
    "address": "경상남도 산청군 차황면",
    "phone": "",
    "category": "행정복지센터",
    "lat": 35.4636815707038,
    "lng": 127.92781082711
  },
  {
    "name": "오부면 행정복지센터",
    "address": "경상남도 산청군 오부면",
    "phone": "",
    "category": "행정복지센터",
    "lat": 35.4586791808434,
    "lng": 127.861963189115
  },
  {
    "name": "생초면 행정복지센터",
    "address": "경상남도 산청군 생초면",
    "phone": "",
    "category": "행정복지센터",
    "lat": 35.4931571847979,
    "lng": 127.832893459219
  },
  {
    "name": "금서면 행정복지센터",
    "address": "경상남도 산청군 금서면",
    "phone": "",
    "category": "행정복지센터",
    "lat": 35.4171754090988,
    "lng": 127.863172409497
  },
  {
    "name": "삼장면 행정복지센터",
    "address": "경상남도 산청군 삼장면",
    "phone": "",
    "category": "행정복지센터",
    "lat": 35.2982299322661,
    "lng": 127.831735620344
  },
  {
    "name": "시천면 행정복지센터",
    "address": "경상남도 산청군 시천면",
    "phone": "",
    "category": "행정복지센터",
    "lat": 35.2784085324267,
    "lng": 127.840576531665
  },
  {
    "name": "단성면 행정복지센터",
    "address": "경상남도 산청군 단성면",
    "phone": "",
    "category": "행정복지센터",
    "lat": 35.2988594519432,
    "lng": 127.95765410323
  },
  {
    "name": "신안면 행정복지센터",
    "address": "경상남도 산청군 신안면",
    "phone": "",
    "category": "행정복지센터",
    "lat": 35.3034561397921,
    "lng": 127.973448058501
  },
  {
    "name": "생비량면 행정복지센터",
    "address": "경상남도 산청군 생비량면",
    "phone": "",
    "category": "행정복지센터",
    "lat": 35.3448936670064,
    "lng": 128.04514643435
  },
  {
    "name": "신등면 행정복지센터",
    "address": "경상남도 산청군 신등면",
    "phone": "",
    "category": "행정복지센터",
    "lat": 35.3828042411311,
    "lng": 128.006610635915
  },
  {
    "name": "함양읍 행정복지센터",
    "address": "경상남도 함양군 함양읍",
    "phone": "",
    "category": "행정복지센터",
    "lat": 35.519734893582,
    "lng": 127.72681578196
  },
  {
    "name": "마천면 행정복지센터",
    "address": "경상남도 함양군 마천면",
    "phone": "",
    "category": "행정복지센터",
    "lat": 35.3969420945819,
    "lng": 127.663048774779
  },
  {
    "name": "휴천면 행정복지센터",
    "address": "경상남도 함양군 휴천면",
    "phone": "",
    "category": "행정복지센터",
    "lat": 35.4806813020567,
    "lng": 127.750233904394
  },
  {
    "name": "유림면 행정복지센터",
    "address": "경상남도 함양군 유림면",
    "phone": "",
    "category": "행정복지센터",
    "lat": 35.4661829816226,
    "lng": 127.792298142283
  },
  {
    "name": "수동면 행정복지센터",
    "address": "경상남도 함양군 수동면",
    "phone": "",
    "category": "행정복지센터",
    "lat": 35.52209943141,
    "lng": 127.78774961991
  },
  {
    "name": "지곡면 행정복지센터",
    "address": "경상남도 함양군 지곡면",
    "phone": "",
    "category": "행정복지센터",
    "lat": 35.5661835737973,
    "lng": 127.774238315386
  },
  {
    "name": "안의면 행정복지센터",
    "address": "경상남도 함양군 안의면",
    "phone": "",
    "category": "행정복지센터",
    "lat": 35.6286789396386,
    "lng": 127.811264991283
  },
  {
    "name": "서하면 행정복지센터",
    "address": "경상남도 함양군 서하면",
    "phone": "",
    "category": "행정복지센터",
    "lat": 35.6476231873354,
    "lng": 127.695456623855
  },
  {
    "name": "서상면 행정복지센터",
    "address": "경상남도 함양군 서상면",
    "phone": "",
    "category": "행정복지센터",
    "lat": 35.6792960507817,
    "lng": 127.688122777256
  },
  {
    "name": "백전면 행정복지센터",
    "address": "경상남도 함양군 백전면",
    "phone": "",
    "category": "행정복지센터",
    "lat": 35.5531844584333,
    "lng": 127.635322624551
  },
  {
    "name": "병곡면 행정복지센터",
    "address": "경상남도 함양군 병곡면",
    "phone": "",
    "category": "행정복지센터",
    "lat": 35.5284715455666,
    "lng": 127.68213141464
  },
  {
    "name": "거창읍 행정복지센터",
    "address": "경상남도 거창군 거창읍",
    "phone": "",
    "category": "행정복지센터",
    "lat": 35.688010089553,
    "lng": 127.903914924402
  },
  {
    "name": "주상면 행정복지센터",
    "address": "경상남도 거창군 주상면",
    "phone": "",
    "category": "행정복지센터",
    "lat": 35.749205025993,
    "lng": 127.913362413557
  },
  {
    "name": "웅양면 행정복지센터",
    "address": "경상남도 거창군 웅양면",
    "phone": "",
    "category": "행정복지센터",
    "lat": 35.8053831792463,
    "lng": 127.917749037715
  },
  {
    "name": "고제면 행정복지센터",
    "address": "경상남도 거창군 고제면",
    "phone": "",
    "category": "행정복지센터",
    "lat": 35.8148411245577,
    "lng": 127.871425956367
  },
  {
    "name": "북상면 행정복지센터",
    "address": "경상남도 거창군 북상면",
    "phone": "",
    "category": "행정복지센터",
    "lat": 35.777641513322,
    "lng": 127.81864160201
  },
  {
    "name": "위천면 행정복지센터",
    "address": "경상남도 거창군 위천면",
    "phone": "",
    "category": "행정복지센터",
    "lat": 35.7496253612486,
    "lng": 127.833111779253
  },
  {
    "name": "마리면 행정복지센터",
    "address": "경상남도 거창군 마리면",
    "phone": "",
    "category": "행정복지센터",
    "lat": 35.7012001992962,
    "lng": 127.854635026585
  },
  {
    "name": "남상면 행정복지센터",
    "address": "경상남도 거창군 남상면",
    "phone": "",
    "category": "행정복지센터",
    "lat": 35.6431995956797,
    "lng": 127.910197911317
  },
  {
    "name": "남하면 행정복지센터",
    "address": "경상남도 거창군 남하면",
    "phone": "",
    "category": "행정복지센터",
    "lat": 35.6677232310199,
    "lng": 127.943595949701
  },
  {
    "name": "신원면 행정복지센터",
    "address": "경상남도 거창군 신원면",
    "phone": "",
    "category": "행정복지센터",
    "lat": 35.5677263581315,
    "lng": 127.925148134174
  },
  {
    "name": "가조면 행정복지센터",
    "address": "경상남도 거창군 가조면",
    "phone": "",
    "category": "행정복지센터",
    "lat": 35.7109665927795,
    "lng": 128.014707588168
  },
  {
    "name": "가북면 행정복지센터",
    "address": "경상남도 거창군 가북면",
    "phone": "",
    "category": "행정복지센터",
    "lat": 35.7627754429709,
    "lng": 127.993228300706
  },
  {
    "name": "합천읍 행정복지센터",
    "address": "경상남도 합천군 합천읍",
    "phone": "",
    "category": "행정복지센터",
    "lat": 35.5660073649237,
    "lng": 128.157901336671
  },
  {
    "name": "봉산면 행정복지센터",
    "address": "경상남도 합천군 봉산면",
    "phone": "",
    "category": "행정복지센터",
    "lat": 35.6260618892661,
    "lng": 128.041839121844
  },
  {
    "name": "묘산면 행정복지센터",
    "address": "경상남도 합천군 묘산면",
    "phone": "",
    "category": "행정복지센터",
    "lat": 35.6584182847634,
    "lng": 128.113331238062
  },
  {
    "name": "가야면 행정복지센터",
    "address": "경상남도 합천군 가야면",
    "phone": "",
    "category": "행정복지센터",
    "lat": 35.7626467994914,
    "lng": 128.139470362942
  },
  {
    "name": "야로면 행정복지센터",
    "address": "경상남도 합천군 야로면",
    "phone": "",
    "category": "행정복지센터",
    "lat": 35.705202610573,
    "lng": 128.167742683507
  },
  {
    "name": "율곡면 행정복지센터",
    "address": "경상남도 합천군 율곡면",
    "phone": "",
    "category": "행정복지센터",
    "lat": 35.5723363316358,
    "lng": 128.218022637923
  },
  {
    "name": "초계면 행정복지센터",
    "address": "경상남도 합천군 초계면",
    "phone": "",
    "category": "행정복지센터",
    "lat": 35.559974824557,
    "lng": 128.265291765704
  },
  {
    "name": "쌍책면 행정복지센터",
    "address": "경상남도 합천군 쌍책면",
    "phone": "",
    "category": "행정복지센터",
    "lat": 35.5759527195148,
    "lng": 128.282257642743
  },
  {
    "name": "덕곡면 행정복지센터",
    "address": "경상남도 합천군 덕곡면",
    "phone": "",
    "category": "행정복지센터",
    "lat": 35.6152261245853,
    "lng": 128.359041344312
  },
  {
    "name": "청덕면 행정복지센터",
    "address": "경상남도 합천군 청덕면",
    "phone": "",
    "category": "행정복지센터",
    "lat": 35.5594158631031,
    "lng": 128.321751445331
  },
  {
    "name": "적중면 행정복지센터",
    "address": "경상남도 합천군 적중면",
    "phone": "",
    "category": "행정복지센터",
    "lat": 35.5476284182543,
    "lng": 128.278577655919
  },
  {
    "name": "대양면 행정복지센터",
    "address": "경상남도 합천군 대양면",
    "phone": "",
    "category": "행정복지센터",
    "lat": 35.5165847706866,
    "lng": 128.174519744779
  },
  {
    "name": "쌍백면 행정복지센터",
    "address": "경상남도 합천군 쌍백면",
    "phone": "",
    "category": "행정복지센터",
    "lat": 35.4416022657989,
    "lng": 128.145478239513
  },
  {
    "name": "삼가면 행정복지센터",
    "address": "경상남도 합천군 삼가면",
    "phone": "",
    "category": "행정복지센터",
    "lat": 35.4144222028386,
    "lng": 128.121845940055
  },
  {
    "name": "가회면 행정복지센터",
    "address": "경상남도 합천군 가회면",
    "phone": "",
    "category": "행정복지센터",
    "lat": 35.4351740211841,
    "lng": 128.033678542349
  },
  {
    "name": "대병면 행정복지센터",
    "address": "경상남도 합천군 대병면",
    "phone": "",
    "category": "행정복지센터",
    "lat": 35.5211861931546,
    "lng": 128.014244590873
  },
  {
    "name": "용주면 행정복지센터",
    "address": "경상남도 합천군 용주면",
    "phone": "",
    "category": "행정복지센터",
    "lat": 35.5406621839102,
    "lng": 128.11335977268
  }
]