[
  {
    "name": "경남종합사회복지관",
    "address": "경남 창원시 마산회원구 팔용로 272",
    "phone": "",
    "category": "종합복지관",
    "lat": 35.248278884796,
    "lng": 128.600951954876
  },
  {
    "name": "경상남도장애인종합복지관",
    "address": "경남 창원시 의창구 봉곡로97번길 85",
    "phone": "",
    "category": "장애인복지관",
    "lat": 35.2504389408392,
    "lng": 128.67894198627
  },
  {
    "name": "창원시 장애인복지관",
    "address": "창원시 의창구 봉곡로 97번길 87",
    "phone": "",
    "category": "장애인복지관",
    "lat": 35.250420911448,
    "lng": 128.679539709394
  },
  {
    "name": "마산시 장애인복지관",
    "address": "창원시 마산합포구 반월서7길 59",
    "phone": "",
    "category": "장애인복지관"
  },
  {
    "name": "진해시 장애인복지관",
    "address": "창원시 진해구 진해대로 1101",
    "phone": "",
    "category": "장애인복지관",
    "lat": 35.131470934474,
    "lng": 128.710235537961
  },
  {
    "name": "진주시 장애인종합복지관",
    "address": "진주시 상대동 33-119",
    "phone": "",
    "category": "장애인복지관",
    "lat": 35.1807360394877,
    "lng": 128.121007759483
  },
  {
    "name": "김해시 장애인종합복지관",
    "address": "김해시 삼계동 32",
    "phone": "",
    "category": "장애인복지관",
    "lat": 35.263428334761,
    "lng": 128.876276120501
  },
  {
    "name": "창녕군 장애인종합복지관",
    "address": "창녕군 창녕읍 탐하리 37",
    "phone": "",
    "category": "장애인복지관",
    "lat": 35.532502124913,
    "lng": 128.494976679548
  },
  {
    "name": "사천시 장애인종합복지관",
    "address": "사천시 용현면 덕곡리 536-17",
    "phone": "",
    "category": "장애인복지관",
    "lat": 34.9969472766967,
    "lng": 128.059930680793
  },
  {
    "name": "남해 장애인종합복지관",
    "address": "남해군 이동면 초음리 1387",
    "phone": "",
    "category": "장애인복지관",
    "lat": 34.8163667576238,
    "lng": 127.933404088506
  },
  {
    "name": "경남노인통합지원센터",
    "address": "창원시 마산회원구 팔용로 272",
    "phone": "",
    "category": "노인복지관",
    "lat": 35.248278884796,
    "lng": 128.600951954876
  },
  {
    "name": "경남함안 시니어클럽",
    "address": "경남 함안군 가야읍 함마대로 1524",
    "phone": "",
    "category": "노인복지관",
    "lat": 35.2766894175424,
    "lng": 128.401686538648
  },
  {
    "name": "경남남해 시니어클럽",
    "address": "경남 남해군 남해읍 화전로43번길 11-15",
    "phone": "",
    "category": "노인복지관",
    "lat": 34.8337347076225,
    "lng": 127.895240281413
  },
  {
    "name": "경남의령 시니어클럽",
    "address": "경남 의령군 의령읍 의병로 202",
    "phone": "",
    "category": "노인복지관",
    "lat": 35.3192283416274,
    "lng": 128.258729043285
  },
  {
    "name": "경남함양 시니어클럽",
    "address": "경상남도 함양군 함양읍 함양로 983-33",
    "phone": "",
    "category": "노인복지관",
    "lat": 35.5083694014304,
    "lng": 127.718275846429
  },
  {
    "name": "경남하동 시니어클럽",
    "address": "경상남도 하동군 하동읍 중앙2길 12",
    "phone": "",
    "category": "노인복지관",
    "lat": 35.0698767227243,
    "lng": 127.747085269564
  },
  {
    "name": "경남산청 시니어클럽",
    "address": "경남 산청군 산청읍 웅석봉로 67번길 24",
    "phone": "",
    "category": "노인복지관",
    "lat": 35.4113967556591,
    "lng": 127.876009485965
  },
  {
    "name": "경남웅상 시니어클럽",
    "address": "경남 양산시 평산로 43",
    "phone": "",
    "category": "노인복지관",
    "lat": 35.381565004639,
    "lng": 129.150125589722
  },
  {
    "name": "경남고성 시니어클럽",
    "address": "경남 고성군 고성읍 송학로47-3",
    "phone": "",
    "category": "노인복지관",
    "lat": 34.9777664075434,
    "lng": 128.31413240611
  },
  {
    "name": "경남진주서부 시니어클럽",
    "address": "경상남도 진주시 순환로573번길 62",
    "phone": "",
    "category": "노인복지관",
    "lat": 35.1720088600713,
    "lng": 128.053586783361
  },
  {
    "name": "경남마산회원 시니어클럽",
    "address": "경남 창원시 마산회원구 회원동북로 18",
    "phone": "",
    "category": "노인복지관",
    "lat": 35.2212534242813,
    "lng": 128.575541819827
  },
  {
    "name": "경남성산 시니어클럽",
    "address": "경남 창원시 성산구 용지로 96",
    "phone": "",
    "category": "노인복지관",
    "lat": 35.2241252225396,
    "lng": 128.678055691292
  }
]