[
  {
    "name": "경남광역정신건강복지센터",
    "address": "경상남도 창원시 마산회원구 팔용로 262",
    "phone": "",
    "category": "정신건강",
    "lat": 35.2446928950772,
    "lng": 128.599596124773
  },
  {
    "name": "창원시마산정신건강복지센터",
    "address": "창원시 마산합포구 월영동북로 15",
    "phone": "",
    "category": "정신건강",
    "lat": 35.1823985096714,
    "lng": 128.562899668408
  },
  {
    "name": "진주시정신건강복지센터",
    "address": "진주시 문산읍 월아산로 983",
    "phone": "",
    "category": "정신건강",
    "lat": 35.159128687356,
    "lng": 128.163603640239
  },
  {
    "name": "통영시정신건강복지센터",
    "address": "통영시 안개4길 108",
    "phone": "",
    "category": "정신건강",
    "lat": 34.8598079901343,
    "lng": 128.432014192291
  },
  {
    "name": "사천시정신건강복지센터",
    "address": "사천시 용현면 시청3길 43",
    "phone": "",
    "category": "정신건강",
    "lat": 35.0048350266009,
    "lng": 128.064119797904
  },
  {
    "name": "김해시정신건강복지센터",
    "address": "김해시 주촌면 주선로 29-1",
    "phone": "",
    "category": "정신건강",
    "lat": 35.2347774158212,
    "lng": 128.845757106954
  },
  {
    "name": "경상남도 노인보호전문기관",
    "address": "경상남도 창원시 마산합포구 문화북4길 금강노인복지관",
    "phone": "",
    "category": "노인보호"
  },
  {
    "name": "경상남도서부 노인보호전문기관",
    "address": "경상남도 진주시 문산읍 월아산로 1098",
    "phone": "",
    "category": "노인보호",
    "lat": 35.1689534672433,
    "lng": 128.162549944394
  },
  {
    "name": "거붕 백병원",
    "address": "경상남도 거제시 계룡로5길 14",
    "phone": "",
    "category": "의료기관",
    "lat": 34.8734175518558,
    "lng": 128.627541688616
  },
  {
    "name": "대우병원",
    "address": "경상남도 거제시 두모길 16",
    "phone": "",
    "category": "의료기관",
    "lat": 34.8719546249584,
    "lng": 128.722122008844
  },
  {
    "name": "맑은샘병원",
    "address": "경상남도 거제시 연초면 거제대로 4477",
    "phone": "",
    "category": "의료기관",
    "lat": 34.8977261010861,
    "lng": 128.643657507403
  },
  {
    "name": "거창적십자병원",
    "address": "경상남도 거창군 거창읍 중앙로 91",
    "phone": "",
    "category": "의료기관",
    "lat": 35.6866870390547,
    "lng": 127.908861519709
  },
  {
    "name": "강병원",
    "address": "경상남도 고성군 고성읍 중앙로 49",
    "phone": "",
    "category": "의료기관",
    "lat": 34.9741817458031,
    "lng": 128.3251936454
  },
  {
    "name": "강일병원",
    "address": "경상남도 김해시 가락로 359",
    "phone": "",
    "category": "의료기관",
    "lat": 35.2567027321637,
    "lng": 128.869611061766
  },
  {
    "name": "조은금강병원",
    "address": "경상남도 김해시 김해대로 1814-37",
    "phone": "",
    "category": "의료기관",
    "lat": 35.2621833543419,
    "lng": 128.861525227961
  },
  {
    "name": "남해병원",
    "address": "경상남도 남해군 남해읍 화전로 169",
    "phone": "",
    "category": "의료기관",
    "lat": 34.8464713585185,
    "lng": 127.894279056777
  },
  {
    "name": "밀양병원",
    "address": "경상남도 밀양시 밀양대로 1823",
    "phone": "",
    "category": "의료기관",
    "lat": 35.4871925708809,
    "lng": 128.748832336864
  },
  {
    "name": "삼천포서울병원",
    "address": "경상남도 사천시 남일로 33",
    "phone": "",
    "category": "의료기관",
    "lat": 34.9331090442564,
    "lng": 128.080140122941
  },
  {
    "name": "양산부산대학교병원",
    "address": "경상남도 양산시 물금읍 금오로 20",
    "phone": "",
    "category": "의료기관",
    "lat": 35.3287740567199,
    "lng": 129.006409127753
  },
  {
    "name": "웅상중앙병원",
    "address": "경상남도 양산시 서창로 59",
    "phone": "",
    "category": "의료기관",
    "lat": 35.4063127806528,
    "lng": 129.164516842928
  },
  {
    "name": "의령병원",
    "address": "경상남도 의령군 의령읍 의병로14길 10",
    "phone": "",
    "category": "의료기관",
    "lat": 35.3187584863437,
    "lng": 128.258593104962
  },
  {
    "name": "창원한마음병원",
    "address": "경상남도 창원시 의창구 용동로57번길 8",
    "phone": "",
    "category": "의료기관",
    "lat": 35.2379627398324,
    "lng": 128.698677096204
  },
  {
    "name": "한일병원",
    "address": "경상남도 진주시 범골로 17",
    "phone": "",
    "category": "의료기관",
    "lat": 35.1669642929336,
    "lng": 128.128548083636
  },
  {
    "name": "삼성합천병원",
    "address": "경상남도 합천군 합천읍 대야로 876",
    "phone": "",
    "category": "의료기관",
    "lat": 35.5664697541953,
    "lng": 128.163334158321
  }
]